{
"type": "FeatureCollection",
"name": "downsteam_south_area",
"crs": { "type": "name", "properties": { "name": "urn:ogc:def:crs:OGC:1.3:CRS84" } },
"features": [
{ "type": "Feature", "properties": { "id": null, "Name": "SUBANGDAKU BRGY. HALL", "description": null, "timestamp": null, "begin": null, "end": null, "altitudeMode": null, "tessellate": -1, "extrude": 0, "visibility": -1, "drawOrder": null, "icon": null }, "geometry": { "type": "Point", "coordinates": [ 123.925127, 10.32032, 0.0 ] } },
{ "type": "Feature", "properties": { "id": null, "Name": "EO PEREZ & M. LOGARTA", "description": null, "timestamp": null, "begin": null, "end": null, "altitudeMode": null, "tessellate": -1, "extrude": 0, "visibility": -1, "drawOrder": null, "icon": null }, "geometry": { "type": "Point", "coordinates": [ 123.926059, 10.320642, 0.0 ] } },
{ "type": "Feature", "properties": { "id": null, "Name": "MC-COMPLEX", "description": null, "timestamp": null, "begin": null, "end": null, "altitudeMode": null, "tessellate": -1, "extrude": 0, "visibility": -1, "drawOrder": null, "icon": null }, "geometry": { "type": "Point", "coordinates": [ 123.941577, 10.324269, 0.0 ] } },
{ "type": "Feature", "properties": { "id": null, "Name": "MANTUYONG AREA", "description": null, "timestamp": null, "begin": null, "end": null, "altitudeMode": null, "tessellate": -1, "extrude": 0, "visibility": -1, "drawOrder": null, "icon": null }, "geometry": { "type": "Point", "coordinates": [ 123.939643, 10.328272, 0.0 ] } },
{ "type": "Feature", "properties": { "id": null, "Name": "GUIZO AREA", "description": null, "timestamp": null, "begin": null, "end": null, "altitudeMode": null, "tessellate": -1, "extrude": 0, "visibility": -1, "drawOrder": null, "icon": null }, "geometry": { "type": "Point", "coordinates": [ 123.93728, 10.329065, 0.0 ] } },
{ "type": "Feature", "properties": { "id": null, "Name": "GUIZO ELEM. SCHOOL AREA", "description": null, "timestamp": null, "begin": null, "end": null, "altitudeMode": null, "tessellate": -1, "extrude": 0, "visibility": -1, "drawOrder": null, "icon": null }, "geometry": { "type": "Point", "coordinates": [ 123.935674, 10.329278, 0.0 ] } },
{ "type": "Feature", "properties": { "id": null, "Name": "MAHARLIKA TIPOLO", "description": null, "timestamp": null, "begin": null, "end": null, "altitudeMode": null, "tessellate": -1, "extrude": 0, "visibility": -1, "drawOrder": null, "icon": null }, "geometry": { "type": "Point", "coordinates": [ 123.933012, 10.327866, 0.0 ] } }
]
}
