{
"type": "FeatureCollection",
"name": "lh_prime_area",
"crs": { "type": "name", "properties": { "name": "urn:ogc:def:crs:OGC:1.3:CRS84" } },
"features": [
{ "type": "Feature", "properties": { "id": null, "Name": "GETHSEMANE AREA", "description": null, "timestamp": null, "begin": null, "end": null, "altitudeMode": null, "tessellate": -1, "extrude": 0, "visibility": -1, "drawOrder": null, "icon": null }, "geometry": { "type": "Point", "coordinates": [ 123.929497, 10.343675, 0.0 ] } },
{ "type": "Feature", "properties": { "id": null, "Name": "A. SENO - CASUNTINGAN HYCO MOTORS", "description": null, "timestamp": null, "begin": null, "end": null, "altitudeMode": null, "tessellate": -1, "extrude": 0, "visibility": -1, "drawOrder": null, "icon": null }, "geometry": { "type": "Point", "coordinates": [ 123.927967, 10.342323, 0.0 ] } },
{ "type": "Feature", "properties": { "id": null, "Name": "MAHIGA", "description": null, "timestamp": null, "begin": null, "end": null, "altitudeMode": null, "tessellate": -1, "extrude": 0, "visibility": -1, "drawOrder": null, "icon": null }, "geometry": { "type": "Point", "coordinates": [ 123.918991, 10.314649, 0.0 ] } },
{ "type": "Feature", "properties": { "id": null, "Name": "SACRIS ROAD EXTN. TIPOLO AREA", "description": null, "timestamp": null, "begin": null, "end": null, "altitudeMode": null, "tessellate": -1, "extrude": 0, "visibility": -1, "drawOrder": null, "icon": null }, "geometry": { "type": "Point", "coordinates": [ 123.926728, 10.337135, 0.0 ] } },
{ "type": "Feature", "properties": { "id": null, "Name": "LH PRIME AREA", "description": null, "timestamp": null, "begin": null, "end": null, "altitudeMode": null, "tessellate": -1, "extrude": 0, "visibility": -1, "drawOrder": null, "icon": null }, "geometry": { "type": "Point", "coordinates": [ 123.926926, 10.338953, 0.0 ] } },
{ "type": "Feature", "properties": { "id": null, "Name": "SACRIS ROAD", "description": null, "timestamp": null, "begin": null, "end": null, "altitudeMode": null, "tessellate": -1, "extrude": 0, "visibility": -1, "drawOrder": null, "icon": null }, "geometry": { "type": "Point", "coordinates": [ 123.932131, 10.338974, 0.0 ] } }
]
}
